City_ID,City,Lat,Lng,Max Temp,Humidity,Cloudiness,Wind Speed,Country,Date
0,ilulissat,69.2167,-51.1,46.42,57,75,5.75,GL,1624134153
1,vanimo,-2.6741,141.3028,75.83,89,100,3.69,PG,1624134154
2,hermitage,41.2334,-80.4487,77.14,86,90,6.91,US,1624134154
3,wyndham,37.6985,-77.6125,93.81,49,1,1.01,US,1624133892
4,atuona,-9.8,-139.0333,79.66,75,16,21.12,PF,1624133890
5,srednyaya yelyuzan,53.0241,45.9529,59.72,84,7,3.6,RU,1624134155
6,carnarvon,-24.8667,113.6333,46.47,43,27,5.75,AU,1624134155
7,half moon bay,37.4636,-122.4286,98.92,61,20,1.99,US,1624134156
8,lebu,-37.6167,-73.65,52.45,64,95,5.97,CL,1624134156
9,iqaluit,63.7506,-68.5145,42.53,65,40,6.91,CA,1624134157
10,ushuaia,-54.8,-68.3,40.66,81,75,21.85,AR,1624134064
11,cape town,-33.9258,18.4232,64.81,42,0,9.22,ZA,1624134080
12,kapaa,22.0752,-159.319,82.72,73,40,3.0,US,1624134158
13,nishihara,26.1842,127.7558,80.26,94,75,8.05,JP,1624134158
14,avarua,-21.2078,-159.775,77.05,69,40,12.66,CK,1624134126
15,mount isa,-20.7333,139.5,49.77,57,65,6.91,AU,1624134159
16,barsovo,61.1667,73.1667,53.73,65,77,9.89,RU,1624134159
17,royal tunbridge wells,51.1325,0.2633,58.1,92,100,10.49,GB,1624134159
18,dikson,73.5069,80.5464,31.39,84,57,6.67,RU,1624134160
19,qaanaaq,77.484,-69.3632,40.69,53,9,3.58,GL,1624134160
20,castro,-24.7911,-50.0119,54.61,98,100,2.44,BR,1624134161
21,san jose,37.3394,-121.895,101.26,32,20,6.91,US,1624133893
22,port lincoln,-34.7333,135.8667,50.97,67,1,4.5,AU,1624134162
23,busselton,-33.65,115.3333,56.05,79,100,10.04,AU,1624134162
24,georgetown,5.4112,100.3354,77.95,93,20,2.3,MY,1624134137
25,norman wells,65.282,-126.8329,69.84,35,20,14.97,CA,1624134163
26,thompson,55.7435,-97.8558,71.76,33,75,6.91,CA,1624134163
27,bengkulu,-3.8004,102.2655,75.49,85,98,4.0,ID,1624134163
28,yatsushiro,32.5,130.6,68.04,84,67,4.85,JP,1624134164
29,khilok,51.3674,110.4676,50.47,93,100,1.57,RU,1624134164
30,abnub,27.2696,31.1511,82.62,22,0,8.16,EG,1624134165
31,yellowknife,62.456,-114.3525,55.92,44,40,6.91,CA,1624134165
32,torbay,47.6666,-52.7314,65.17,83,75,4.61,CA,1624134165
33,aklavik,68.2191,-135.0107,77.83,31,20,10.36,CA,1624134166
34,along,28.1667,94.7667,73.78,99,95,0.49,IN,1624134166
35,buala,-8.145,159.5921,79.83,80,75,4.88,SB,1624134167
36,castro alves,-12.7656,-39.4283,75.7,64,79,9.17,BR,1624134167
37,santana do livramento,-30.8908,-55.5328,55.69,72,57,9.17,BR,1624134168
38,rikitea,-23.1203,-134.9692,74.46,77,9,21.5,PF,1624134168
39,maragogi,-9.0122,-35.2225,76.5,76,99,13.09,BR,1624134169
40,cururupu,-1.8283,-44.8683,79.34,84,78,5.21,BR,1624134169
41,vaini,-21.2,-175.2,74.16,71,100,9.13,TO,1624134170
42,east london,-33.0153,27.9116,64.36,55,4,8.19,ZA,1624134170
43,namatanai,-3.6667,152.4333,78.12,82,10,4.81,PG,1624134170
44,synya,65.3718,58.0387,37.85,93,100,22.53,RU,1624134171
45,yinchuan,38.4681,106.2731,77.18,23,100,3.51,CN,1624134171
46,mataura,-46.1927,168.8643,30.47,98,26,1.9,NZ,1624134172
47,ocampo,21.65,-101.5,59.54,77,100,10.29,MX,1624134172
48,bredasdorp,-34.5322,20.0403,56.28,87,47,1.14,ZA,1624134172
49,kaeo,-35.1,173.7833,53.33,97,35,13.09,NZ,1624134173
50,fare,-16.7,-151.0167,80.87,74,4,17.6,PF,1624134173
51,leningradskiy,69.3833,178.4167,41.0,87,91,4.88,RU,1624134174
52,san patricio,28.017,-97.5169,95.02,47,25,14.09,US,1624134174
53,pacific grove,36.6177,-121.9166,96.3,76,1,5.99,US,1624134175
54,port elizabeth,-33.918,25.5701,52.09,93,20,3.44,ZA,1624134059
55,punta arenas,-53.15,-70.9167,42.91,81,90,16.11,CL,1624134011
56,hithadhoo,-0.6,73.0833,83.5,70,100,14.79,MV,1624134176
57,praia da vitoria,38.7333,-27.0667,72.75,83,75,18.9,PT,1624134176
58,zabol,32.25,67.25,69.91,9,0,7.58,AF,1624134176
59,tasiilaq,65.6145,-37.6368,39.36,65,100,4.59,GL,1624134177
60,makakilo city,21.3469,-158.0858,81.28,57,75,9.22,US,1624134177
61,carauari,-4.8828,-66.8958,84.67,70,98,3.47,BR,1624134178
62,abeche,13.8292,20.8324,84.69,44,87,11.72,TD,1624134178
63,jamestown,42.097,-79.2353,72.99,92,90,11.99,US,1624134178
64,klaksvik,62.2266,-6.589,49.12,84,58,10.31,FO,1624134179
65,matara,5.9485,80.5353,79.2,83,100,11.83,LK,1624134179
66,yar-sale,66.8333,70.8333,44.42,78,87,8.97,RU,1624134180
67,champasak,14.75,106.0,73.96,97,30,1.39,LA,1624134180
68,mahebourg,-20.4081,57.7,71.89,64,20,12.66,MU,1624134181
69,barda,40.3744,47.1267,80.2,37,0,8.52,AZ,1624134181
70,sterling,39.0062,-77.4286,87.08,69,90,10.0,US,1624134121
71,hilo,19.7297,-155.09,84.27,65,1,5.75,US,1624133958
72,albany,42.6001,-73.9662,85.64,46,100,9.01,US,1624134086
73,esperance,-33.8667,121.9,53.37,58,100,16.96,AU,1624134183
74,kaitangata,-46.2817,169.8464,43.97,93,70,5.44,NZ,1624134183
75,victoria,22.2855,114.1577,86.97,85,98,1.01,HK,1624133921
76,lamar,33.6668,-95.5836,91.31,43,20,6.91,US,1624134184
77,grindavik,63.8424,-22.4338,46.9,70,20,21.85,IS,1624134184
78,tobol,52.6844,62.5794,59.79,65,100,11.05,KZ,1624134185
79,kamaishi,39.2667,141.8833,65.23,97,88,4.7,JP,1624134185
80,nikolskoye,59.7035,30.7861,72.01,69,5,4.05,RU,1624134185
81,port blair,11.6667,92.75,82.42,77,71,8.88,IN,1624134186
82,ahuimanu,21.4447,-157.8378,82.45,58,20,11.5,US,1624134186
83,fairlie,55.756,-4.8556,61.84,78,100,3.44,GB,1624134187
84,nizhnevartovsk,60.9344,76.5531,42.82,100,98,2.24,RU,1624134187
85,ovsyanka,55.9575,92.5519,65.37,77,100,2.98,RU,1624134188
86,portland,45.5234,-122.6762,80.64,50,20,1.99,US,1624134156
87,saint-philippe,-21.3585,55.7679,68.22,74,37,11.07,RE,1624134188
88,san cristobal,7.7669,-72.225,80.78,49,38,6.33,VE,1624134189
89,takapau,-40.0333,176.35,52.18,99,100,9.51,NZ,1624134189
90,pemangkat,1.1667,108.9667,79.12,81,100,5.28,ID,1624134190
91,tomatlan,19.9333,-105.25,77.45,90,100,7.94,MX,1624134190
92,luderitz,-26.6481,15.1594,67.68,40,20,2.77,NA,1624134191
93,port alfred,-33.5906,26.891,64.54,54,12,9.24,ZA,1624133913
94,hasaki,35.7333,140.8333,68.4,95,100,12.33,JP,1624134191
95,narsaq,60.9167,-46.05,52.02,77,100,5.61,GL,1624134192
96,hualmay,-11.0964,-77.6139,69.44,74,55,10.38,PE,1624134192
97,barrow,71.2906,-156.7887,39.22,75,1,11.5,US,1624134011
98,takoradi,4.8845,-1.7554,78.03,85,100,9.69,GH,1624134193
99,samarai,-10.6167,150.6667,78.28,77,99,12.46,PG,1624134193
100,butaritari,3.0707,172.7902,81.59,72,34,2.39,KI,1624134194
101,mar del plata,-38.0023,-57.5575,50.0,63,20,5.99,AR,1624134192
102,broken hill,-31.95,141.4333,43.34,88,0,8.7,AU,1624134194
103,asfi,32.2994,-9.2372,65.97,72,96,20.83,MA,1624134195
104,hobart,-42.8794,147.3294,47.01,93,75,3.44,AU,1624134149
105,faanui,-16.4833,-151.75,80.26,79,8,15.93,PF,1624134196
106,new norfolk,-42.7826,147.0587,46.65,86,93,2.39,AU,1624134196
107,kushima,31.4583,131.2333,71.33,94,100,3.69,JP,1624134197
108,kruisfontein,-34.0033,24.7314,60.33,30,6,6.82,ZA,1624134197
109,tuktoyaktuk,69.4541,-133.0374,69.8,37,40,9.22,CA,1624134197
110,pinawa,50.1489,-95.8811,65.17,59,94,4.61,CA,1624134198
111,ahipara,-35.1667,173.1667,58.77,88,37,15.32,NZ,1624134198
112,jalu,29.0331,21.5482,77.34,46,0,17.54,LY,1624134199
113,north bend,43.4065,-124.2243,84.24,62,1,26.46,US,1624133902
114,general roca,-39.0333,-67.5833,43.2,51,0,4.81,AR,1624134199
115,anchorage,61.2181,-149.9003,59.95,86,90,4.0,US,1624134013
116,bambanglipuro,-7.95,110.2833,54.61,90,97,3.56,ID,1624134200
117,cherskiy,68.75,161.3,52.57,55,100,11.5,RU,1624134200
118,lagoa,39.05,-27.9833,67.23,93,1,16.67,PT,1624134201
119,rawson,-43.3002,-65.1023,48.79,52,4,15.32,AR,1624134201
120,waipawa,-41.4122,175.5153,50.63,97,100,11.43,NZ,1624134202
121,mandalgovi,45.7625,106.2708,60.96,40,94,6.26,MN,1624134202
122,vila franca do campo,37.7167,-25.4333,68.41,86,43,10.54,PT,1624134203
123,isangel,-19.55,169.2667,76.21,85,72,6.11,VU,1624134203
124,puerto ayora,-0.7393,-90.3518,80.56,88,69,10.0,EC,1624134101
125,grand forks,47.9417,-97.4337,76.78,36,75,11.5,US,1624134204
126,atambua,-9.1061,124.8925,70.7,90,87,4.68,ID,1624134204
127,garowe,8.4054,48.4845,80.78,53,59,24.99,SO,1624134204
128,tessalit,20.1986,1.0114,97.52,5,0,5.82,ML,1624134205
129,mpika,-11.8343,31.4529,58.71,64,88,7.54,ZM,1624134205
130,adrar,20.5022,-10.0711,90.48,14,0,11.68,MR,1624134206
131,srednekolymsk,67.45,153.6833,55.24,43,100,6.71,RU,1624134206
132,nasirabad,26.3,74.7333,82.51,61,81,8.9,IN,1624134206
133,havre-saint-pierre,50.2334,-63.5986,55.76,88,90,8.05,CA,1624134207
134,verkhnetulomskiy,68.6073,31.7962,51.93,79,100,5.46,RU,1624133953
135,porto velho,-8.7619,-63.9039,75.25,88,90,3.44,BR,1624134208
136,hermanus,-34.4187,19.2345,56.8,47,19,7.67,ZA,1624134208
137,mayo,38.8876,-76.5119,88.05,55,1,8.05,US,1624134208
138,provideniya,64.3833,-173.3,54.79,58,23,3.09,RU,1624134209
139,bathsheba,13.2167,-59.5167,86.61,66,40,14.97,BB,1624134209
140,manadhoo,5.7667,73.3833,82.72,75,84,15.43,MV,1624134210
141,luanda,-8.8368,13.2343,75.2,83,20,9.22,AO,1624134003
142,labrea,-7.2586,-64.7981,87.73,57,86,2.98,BR,1624134210
143,launceston,-41.45,147.1667,37.15,100,10,1.14,AU,1624134211
144,peniche,39.3558,-9.3811,63.63,83,100,8.93,PT,1624134211
145,derzhavinsk,51.1,66.3167,58.32,59,96,7.49,KZ,1624134212
146,igrim,63.1906,64.4162,53.89,97,100,9.89,RU,1624134212
147,piacabucu,-10.4056,-36.4344,77.0,69,13,10.36,BR,1624134212
148,pokhara,28.2333,83.9833,70.92,90,100,0.76,NP,1624134213
149,astana,51.1801,71.446,49.95,66,0,11.18,KZ,1624134179
150,ancud,-41.8697,-73.8203,48.22,79,90,4.85,CL,1624134213
151,middelkerke,51.1558,2.8418,64.0,92,75,10.36,BE,1624134214
152,barabash,43.2,131.4833,56.88,89,99,5.97,RU,1624134214
153,sangar,63.9242,127.4739,62.96,51,37,1.25,RU,1624134215
154,mitu,1.1983,-70.1733,80.49,92,47,2.28,CO,1624134215
155,nanortalik,60.1432,-45.2371,42.78,81,100,13.56,GL,1624134216
156,moose factory,51.2585,-80.6094,64.4,45,1,8.05,CA,1624134216
157,gelemso,8.8167,40.5167,60.67,86,98,15.17,ET,1624134216
158,novo oriente,-5.5344,-40.7742,87.1,38,87,10.22,BR,1624134217
159,ampanihy,-24.7,44.75,64.69,79,28,13.98,MG,1624134217
160,kieta,-6.2167,155.6333,76.93,82,4,2.64,PG,1624134218
161,tagusao,9.1924,117.8141,80.73,82,100,9.78,PH,1624134218
162,tari,12.4086,4.4914,93.09,38,68,4.52,NG,1624134219
163,bluff,-46.6,168.3333,30.79,89,13,8.66,NZ,1624134219
164,saint-jacques,45.9501,-73.5659,78.87,46,21,10.36,CA,1624134220
165,nara,34.6851,135.8049,69.08,82,75,1.59,JP,1624134220
166,ust-koksa,50.2696,85.6108,52.84,88,58,1.9,RU,1624134220
167,santa cruz,-17.8,-63.1667,55.45,71,75,13.8,BO,1624134221
168,ixtapa,20.7,-105.2,85.23,66,90,4.61,MX,1624134221
169,aldan,58.6031,125.3894,60.28,89,92,3.42,RU,1624134222
170,manzanillo,20.3433,-77.1167,86.9,67,81,1.21,CU,1624134222
171,jinka,5.65,36.65,65.25,73,73,1.88,ET,1624134223
172,baherden,38.4362,57.4316,86.0,19,0,6.33,TM,1624134223
173,saint george,37.1041,-113.5841,108.79,12,1,1.01,US,1624134223
174,tazmalt,36.3868,4.3989,79.57,54,34,3.38,DZ,1624134224
175,ostrovnoy,68.0531,39.5131,48.52,80,39,8.03,RU,1624134224
176,mankera,31.3866,71.4407,97.54,22,0,11.07,PK,1624134225
177,itamaraca,-7.7478,-34.8256,77.68,80,20,14.09,BR,1624134225
178,ngemplak,-7.5497,110.7164,73.56,95,100,4.09,ID,1624134226
179,beringovskiy,63.05,179.3167,42.24,89,98,6.44,RU,1624134226
180,los llanos de aridane,28.6585,-17.9182,65.95,74,20,16.11,ES,1624134227
181,xinye,32.5186,112.3522,68.4,74,98,6.55,CN,1624134227
182,awbari,26.5921,12.7805,92.34,15,0,7.74,LY,1624134228
183,salinopolis,-0.6136,-47.3561,82.2,76,100,11.41,BR,1624134228
184,springbok,-29.6643,17.8865,62.17,29,1,6.93,ZA,1624134228
185,cajabamba,-7.6167,-78.05,64.09,52,55,4.09,PE,1624134229
186,coquimbo,-29.9533,-71.3436,60.53,72,0,11.5,CL,1624134196
187,saint-denis,48.9167,2.3333,68.49,95,75,3.0,FR,1624134229
188,antalaha,-14.9003,50.2788,71.08,79,50,12.53,MG,1624134230
189,acarau,-2.8856,-40.12,81.07,76,47,10.89,BR,1624134230
190,san joaquin,37.9333,-121.3011,106.68,17,1,6.91,US,1624134231
191,kiunga,-6.1219,141.2906,71.8,97,100,1.83,PG,1624134231
192,mogok,22.9167,96.5,64.71,97,84,3.83,MM,1624134232
193,karratha,-20.7377,116.8463,64.92,43,0,7.7,AU,1624134232
194,balkhash,46.844,74.9804,57.74,42,0,12.57,KZ,1624134232
195,bezhetsk,57.7851,36.6965,65.71,79,6,7.81,RU,1624134233
196,bambous virieux,-20.3428,57.7575,71.85,64,20,12.66,MU,1624134233
197,scarborough,54.2797,-0.4044,58.66,85,100,1.99,GB,1624134234
198,shelburne,44.0787,-80.2041,78.69,62,100,10.13,CA,1624134234
199,praia,14.9215,-23.5087,75.74,69,20,21.85,CV,1624134234
200,shimonoseki,33.95,130.95,68.0,88,40,4.61,JP,1624134235
201,saint-francois,46.4154,3.9054,63.84,94,90,3.44,FR,1624134235
202,santiago del estero,-27.7951,-64.2615,60.28,40,3,4.63,AR,1624134097
203,daphne,30.6035,-87.9036,84.69,81,90,11.5,US,1624134073
204,mount gambier,-37.8333,140.7667,50.86,66,100,1.1,AU,1624134236
205,guerrero negro,27.9769,-114.0611,72.36,61,6,19.77,MX,1624134236
206,dzhebariki-khaya,62.2167,135.8,62.98,55,41,1.61,RU,1624134237
207,walvis bay,-22.9575,14.5053,54.55,94,0,2.3,NA,1624134237
208,arraial do cabo,-22.9661,-42.0278,71.46,78,0,19.57,BR,1624134238
209,vanavara,60.34,102.2797,55.89,93,81,1.01,RU,1624134238
210,kunya,12.2233,8.5325,75.36,83,20,13.8,NG,1624134239
211,saskylakh,71.9167,114.0833,71.98,48,47,7.29,RU,1624134239
212,nova aurora,-22.8667,-52.5667,63.57,82,96,10.07,BR,1624134239
213,freeport,40.6576,-73.5832,91.4,54,1,1.01,US,1624134046
214,cidreira,-30.1811,-50.2056,59.25,94,100,13.24,BR,1624134240
215,sheridan,44.8333,-106.9173,88.18,21,1,4.0,US,1624134240
216,ponta do sol,32.6667,-17.1,70.0,69,39,1.32,PT,1624134241
217,imbituba,-28.24,-48.6703,62.49,97,100,18.16,BR,1624134241
218,tonj,7.2737,28.6822,69.76,92,100,1.97,SS,1624134242
219,kirakira,-10.4544,161.9205,78.87,84,71,5.99,SB,1624134242
220,biltine,14.5333,20.9167,88.52,39,89,6.38,TD,1624134243
221,waitara,-38.925,174.25,53.73,92,100,12.62,NZ,1624134243
222,chapais,49.7834,-74.8492,62.38,73,99,9.15,CA,1624134243
223,komsomolskiy,40.4272,71.7189,72.32,35,49,4.61,UZ,1624134244
224,emerald,-23.5333,148.1667,47.48,69,0,5.88,AU,1624134244
225,touros,-5.1989,-35.4608,77.9,77,2,15.79,BR,1624134245
226,tiksi,71.6872,128.8694,58.12,57,97,4.03,RU,1624134245
227,nemuro,43.3236,145.575,48.58,95,100,8.77,JP,1624134245
228,bagdarin,54.4333,113.6,49.66,97,100,3.47,RU,1624134246
229,oktyabrskoye,43.0645,44.7417,62.74,72,63,6.71,RU,1624134246
230,marzuq,14.4,46.4667,81.0,15,34,0.27,YE,1624134247
231,axim,4.8699,-2.2405,78.4,83,100,8.95,GH,1624134247
232,murwara,23.85,80.4,77.43,82,100,8.32,IN,1624134248
233,ekibastuz,51.6667,75.3667,49.46,55,23,8.34,KZ,1624134248
234,pisco,-13.7,-76.2167,66.25,77,90,9.22,PE,1624134248
235,kavieng,-2.5744,150.7967,79.77,80,79,4.68,PG,1624134249
236,faya,18.3851,42.4509,73.51,24,91,2.24,SA,1624134249
237,hovd,48.0056,91.6419,65.95,42,100,5.23,MN,1624134250
238,vao,-22.6667,167.4833,72.36,80,97,16.31,NC,1624134250
239,cabo san lucas,22.8909,-109.9124,103.51,45,1,12.66,MX,1624134056
240,miramar,25.9873,-80.2323,91.02,69,20,11.5,US,1624134251
241,natal,-5.795,-35.2094,80.82,74,75,8.05,BR,1624134251
242,aleksandrovka,46.8383,32.7612,69.66,85,61,8.79,UA,1624134251
243,simbahan,6.3032,120.5836,82.35,73,100,3.27,PH,1624134252
244,kulhudhuffushi,6.6221,73.07,82.08,78,100,15.52,MV,1624134252
245,kapoeta,4.7717,33.5903,76.26,72,100,4.61,SS,1624134253
246,evensk,61.95,159.2333,46.35,84,100,9.55,RU,1624134253
247,cayenne,4.9333,-52.3333,86.04,74,75,5.01,GF,1624134254
248,burgeo,47.6167,-57.6152,56.82,69,0,7.76,CA,1624134254
249,fortuna,40.5982,-124.1573,71.92,68,1,3.0,US,1624134254
250,severo-kurilsk,50.6789,156.125,44.82,84,100,5.03,RU,1624134255
251,souillac,-20.5167,57.5167,71.98,64,20,12.66,MU,1624134255
252,augusto correa,-1.0217,-46.635,81.36,77,100,6.33,BR,1624134256
253,sibolga,1.7427,98.7792,76.68,78,100,3.11,ID,1624134256
254,wanning,18.8003,110.3967,81.81,86,52,9.98,CN,1624134257
255,martapura,-3.4167,114.85,75.29,100,90,1.14,ID,1624134257
256,lixourion,38.2019,20.4314,73.4,88,20,12.66,GR,1624134257
257,meitingen,48.55,10.85,75.07,73,1,2.3,DE,1624134258
258,kathmandu,27.7167,85.3167,70.02,100,75,0.0,NP,1624134157
259,jeremie,18.65,-74.1167,85.44,69,100,6.26,HT,1624134258
260,green valley,31.8543,-110.9937,110.19,12,4,10.02,US,1624133991
261,rafsanjan,30.4067,55.9939,79.52,9,0,11.21,IR,1624134259
262,riyadh,24.6877,46.7219,93.25,12,0,3.44,SA,1624134044
263,baoding,38.8511,115.4903,76.08,20,35,4.83,CN,1624134260
264,kindu,-2.95,25.95,73.45,73,98,3.02,CD,1624134260
265,mamallapuram,12.6264,80.1722,85.05,68,100,7.16,IN,1624134261
266,hambantota,6.1241,81.1185,80.08,77,98,16.91,LK,1624134261
267,digby,44.6169,-65.7655,66.58,89,100,16.08,CA,1624134262
268,zhiryatino,53.2228,33.7306,70.12,91,2,6.96,RU,1624134262
269,aguimes,27.9054,-15.4461,66.83,56,20,23.02,ES,1624134262
270,eyl,7.9803,49.8164,78.84,74,29,26.15,SO,1624134263
271,channel-port aux basques,47.5702,-59.1367,54.75,74,5,13.0,CA,1624134263
272,myaundzha,63.0494,147.1858,60.1,49,96,2.59,RU,1624134264
273,codrington,-38.2667,141.9667,50.77,86,100,5.46,AU,1624134264
274,jesus carranza,17.4333,-95.0333,89.28,64,20,4.23,MX,1624134264
275,trairi,-3.2778,-39.2689,80.26,75,38,11.1,BR,1624134245
276,urengoy,65.9667,78.3667,40.93,75,13,0.89,RU,1624134265
277,hobyo,5.3505,48.5268,77.23,82,89,29.8,SO,1624134266
278,colares,38.7992,-9.4469,63.34,67,20,8.99,PT,1624134266
279,biak,-0.9131,122.8766,75.87,81,100,5.03,ID,1624134267
280,canals,38.9625,-0.5844,73.11,83,100,4.9,ES,1624134267
281,lodja,-3.4833,23.4333,74.21,46,42,0.72,CD,1624134268
282,quatre cocos,-20.2078,57.7625,71.71,61,4,16.42,MU,1624134268
283,yumen,40.2833,97.2,66.63,31,70,7.43,CN,1624134268
284,san quintin,30.4833,-115.95,71.58,67,1,15.41,MX,1624134269
285,constitucion,-35.3333,-72.4167,56.73,61,99,10.07,CL,1624134269
286,montbrison,45.6667,4.0833,78.66,60,100,10.63,FR,1624134270
287,hirado,33.3597,129.5531,71.38,82,25,7.23,JP,1624134270
288,topdac,16.5553,120.7116,58.84,91,100,1.19,PH,1624134270
289,tual,-5.6667,132.75,80.58,79,99,21.21,ID,1624134271
290,bethel,41.3712,-73.414,88.02,59,20,1.01,US,1624134271
291,yulara,-25.2406,130.9889,35.44,87,8,5.75,AU,1624134272
292,krasnoselkup,65.7,82.4667,39.36,92,100,9.98,RU,1624134272
293,tongren,27.7172,109.1853,69.37,95,100,2.08,CN,1624134273
294,sao joao da barra,-21.6403,-41.0511,71.69,70,21,17.49,BR,1624134273
295,geraldton,-28.7667,114.6,46.81,76,91,14.97,AU,1624134273
296,caravelas,-17.7125,-39.2481,72.34,70,50,10.11,BR,1624134274
297,kidal,18.4411,1.4078,101.28,13,80,2.66,ML,1624134275
298,namibe,-15.1961,12.1522,68.4,73,5,8.81,AO,1624134275
299,alappuzha,9.49,76.3264,79.59,80,100,9.42,IN,1624134276
300,harper,4.375,-7.7169,77.77,84,22,8.52,LR,1624134276
301,samana,19.2056,-69.3369,88.02,74,40,6.91,DO,1624134277
302,kangaatsiaq,68.3065,-53.4641,39.33,74,96,11.74,GL,1624134277
303,roma,43.2128,-75.4557,84.09,45,40,12.66,US,1624134080
304,queenstown,-31.8976,26.8753,51.71,50,0,6.76,ZA,1624134278
305,khatanga,71.9667,102.5,58.23,73,15,5.73,RU,1624134253
306,longyearbyen,78.2186,15.6401,42.64,65,75,28.77,SJ,1624134278
307,velbert,51.3333,7.05,77.85,57,100,8.99,DE,1624134279
308,comodoro rivadavia,-45.8667,-67.5,48.06,46,0,12.66,AR,1624134068
309,henties bay,-22.116,14.2845,61.57,74,4,3.15,NA,1624134279
310,chara,56.9064,118.2631,51.67,82,6,2.1,RU,1624134280
311,sitka,57.0531,-135.33,66.09,48,20,8.05,US,1624134280
312,mopipi,-21.1833,24.8833,57.92,63,28,14.88,BW,1624134280
313,korla,41.7597,86.1469,73.42,27,8,5.59,CN,1624134281
314,eureka,40.8021,-124.1637,72.19,69,8,4.0,US,1624134281
315,margate,51.3813,1.3862,58.71,96,100,4.0,GB,1624134282
316,hamilton,39.1834,-84.5333,82.6,73,40,1.99,US,1624133997
317,katsuura,35.1333,140.3,70.2,97,100,18.28,JP,1624134282
318,asau,46.4333,26.4,64.76,100,100,4.07,RO,1624134283
319,cap malheureux,-19.9842,57.6142,72.09,61,6,17.87,MU,1624134283
320,buraydah,26.326,43.975,91.85,11,0,9.51,SA,1624134284
321,aleksandrovsk-sakhalinskiy,50.8975,142.1561,52.88,78,100,1.43,RU,1624134284
322,pangnirtung,66.1451,-65.7125,41.88,87,100,1.92,CA,1624134284
323,ewa beach,21.3156,-158.0072,82.35,56,75,5.01,US,1624134285
324,bereda,43.2686,-7.5406,59.41,90,99,7.16,ES,1624134286
325,honiara,-9.4333,159.95,76.59,84,46,2.95,SB,1624134286
326,clearwater,27.9659,-82.8001,93.11,74,1,8.01,US,1624134286
327,rafaela,-31.2503,-61.4867,61.0,40,6,3.0,AR,1624134287
328,ca mau,9.1769,105.15,78.57,85,56,4.54,VN,1624134251
329,upernavik,72.7868,-56.1549,38.25,67,15,7.29,GL,1624134287
330,martinho campos,-19.3317,-45.2369,75.16,39,0,4.41,BR,1624134288
331,talnakh,69.4865,88.3972,43.57,97,99,3.24,RU,1624134288
332,olafsvik,64.8945,-23.7142,41.58,69,39,16.44,IS,1624134289
333,dubrajpur,23.8,87.3833,80.08,92,100,7.16,IN,1624134289
334,tigil,57.8,158.6667,48.92,67,69,13.22,RU,1624134290
335,altay,47.8667,88.1167,65.55,44,69,4.38,CN,1624134290
336,lima,-12.0432,-77.0282,64.65,65,90,1.01,PE,1624134147
337,okhotsk,59.3833,143.3,54.72,66,51,14.07,RU,1624134291
338,saint-pierre,-21.3393,55.4781,68.29,65,75,9.22,RE,1624134291
339,buluang,13.3068,123.3425,79.95,89,100,5.44,PH,1624134292
340,college,64.8569,-147.8028,66.2,72,90,5.75,US,1624134140
341,gunjur,13.2019,-16.7339,78.87,83,40,16.11,GM,1624134292
342,northam,51.0333,-4.2167,59.67,87,72,9.1,GB,1624134293
343,ketchikan,55.3422,-131.6461,63.07,59,20,10.36,US,1624134293
344,elizabeth city,36.2946,-76.2511,93.25,55,40,11.99,US,1624134294
345,indianola,41.3581,-93.5574,89.4,39,0,4.43,US,1624134294
346,inhambane,-23.865,35.3833,67.71,79,26,10.22,MZ,1624134294
347,nyurba,63.2842,118.3319,64.51,70,53,3.44,RU,1624134295
348,oranjemund,-28.55,16.4333,69.13,35,63,4.07,NA,1624134295
349,escarcega,18.6089,-90.7454,93.51,39,100,6.73,MX,1624134296
350,sao filipe,14.8961,-24.4956,73.69,79,1,9.26,CV,1624134296
351,medowie,-32.7333,151.8667,55.78,95,40,17.27,AU,1624134296
352,lorengau,-2.0226,147.2712,78.64,82,67,3.31,PG,1624134297
353,meulaboh,4.1363,96.1285,77.38,87,100,2.04,ID,1624134297
354,saint-augustin,51.226,-58.6502,64.76,52,27,17.25,CA,1624134298
355,terrace,54.5163,-128.6035,67.91,52,20,5.75,CA,1624134298
356,kutum,14.2,24.6667,83.14,17,11,5.64,SD,1624134299
357,anori,-3.7728,-61.6442,85.66,65,79,4.43,BR,1624134299
358,jhargram,22.45,86.9833,75.9,93,100,7.25,IN,1624134299
359,leczna,51.3012,22.8814,70.11,78,0,1.14,PL,1624134300
360,khingansk,49.1167,131.1833,51.57,92,100,4.27,RU,1624134300
361,alekseyevskoye,55.3071,50.1135,68.68,87,0,11.99,RU,1624134301
362,boca do acre,-8.7522,-67.3978,86.61,55,70,2.71,BR,1624134301
363,ruza,55.699,36.1952,69.94,85,0,4.23,RU,1624134303
364,muisne,0.6,-80.0333,82.51,80,99,10.42,EC,1624134303
365,vardo,70.3705,31.1107,44.2,90,100,9.04,NO,1624134303
366,saquarema,-22.92,-42.5103,71.64,79,36,19.24,BR,1624134304
367,saint anthony,45.0205,-93.218,82.02,37,1,1.99,US,1624134304
368,kahului,20.8947,-156.47,82.42,69,20,19.57,US,1624134305
369,kearney,40.6995,-99.0815,83.98,42,1,10.36,US,1624134187
370,orcopampa,-15.2661,-72.3417,56.64,27,100,7.85,PE,1624134306
371,siocon,7.7061,122.1353,77.5,83,100,2.68,PH,1624134306
372,kibre mengist,5.8833,38.9833,60.82,81,98,1.36,ET,1624134306
373,cibitoke,-2.8833,29.25,61.74,84,75,4.03,BI,1624134307
374,lincoln,40.8,-96.667,91.29,38,1,1.01,US,1624134222
375,vanersborg,58.3807,12.3234,66.15,75,75,10.36,SE,1624134307
376,groningen,53.25,6.75,62.13,89,90,6.91,NL,1624134299
377,tambura,5.6,27.4667,67.91,98,100,4.21,SS,1624134308
378,tuatapere,-46.1333,167.6833,30.81,90,2,3.49,NZ,1624134308
379,gravdal,68.1214,13.5031,47.93,76,100,4.36,NO,1624134309
380,chokurdakh,70.6333,147.9167,61.21,42,79,10.74,RU,1624134253
381,kodiak,57.79,-152.4072,49.51,93,90,12.66,US,1624134093
382,clyde river,70.4692,-68.5914,35.83,93,90,4.61,CA,1624134310
383,salamiyah,35.0113,37.0532,67.15,71,0,12.53,SY,1624134310
384,mogadishu,2.0371,45.3438,77.83,82,100,17.58,SO,1624134270
385,ribeira grande,38.5167,-28.7,70.2,78,40,20.71,PT,1624134311
386,prabumulih,-3.45,104.25,72.46,95,100,1.63,ID,1624134311
387,springfield,37.2153,-93.2982,92.43,58,20,11.01,US,1624134206
388,magadan,59.5667,150.8,49.59,76,49,2.75,RU,1624134312
389,pekan,3.4836,103.3996,75.31,91,99,5.41,MY,1624134312
390,herran,7.5061,-72.4833,70.0,78,99,4.29,CO,1624134313
391,lake havasu city,34.4839,-114.3224,117.25,9,1,4.0,US,1624134313
392,bikaner,28.0167,73.3,90.43,48,0,16.87,IN,1624134314
393,raton,36.9034,-104.4391,90.21,24,1,6.91,US,1624134314
394,chuy,-33.6971,-53.4616,54.25,95,100,7.02,UY,1624134314
395,antofagasta,-23.65,-70.4,60.08,69,41,8.25,CL,1624134315
396,auki,-8.7676,160.7034,76.33,83,87,4.07,SB,1624134315
397,vilyuysk,63.7553,121.6247,65.79,74,38,2.42,RU,1624134316
398,shanhetun,44.7,127.2,54.46,93,100,4.14,CN,1624134316
399,ginda,30.6945,78.4932,61.77,86,99,2.59,IN,1624134316
400,talara,-4.5772,-81.2719,75.96,73,0,12.66,PE,1624134317
401,maniitsoq,65.4167,-52.9,39.06,98,100,10.87,GL,1624134317
402,nador,35.174,-2.9287,71.67,64,0,10.36,MA,1624134318
403,caohai,26.8661,104.2841,57.96,93,100,3.49,CN,1624134318
404,ust-maya,60.4167,134.5333,60.31,67,27,1.39,RU,1624134319
405,pevek,69.7008,170.3133,37.06,90,65,1.41,RU,1624134319
406,raudeberg,61.9875,5.1352,56.07,80,80,21.5,NO,1624134319
407,kloulklubed,7.0419,134.2556,83.01,73,86,8.1,PW,1624134320
408,moussoro,13.6408,16.4901,95.07,31,37,9.64,TD,1624134320
409,tadine,-21.55,167.8833,71.55,87,88,3.15,NC,1624134321
410,milford mill,39.3479,-76.77,86.29,74,100,9.86,US,1624134321
411,rexburg,43.826,-111.7897,89.11,13,1,5.75,US,1624134106
412,sirari,-1.2333,34.4333,59.74,93,93,5.12,TZ,1624134322
413,tambilil,5.9622,124.6697,77.56,81,95,3.38,PH,1624134322
414,sungaipenuh,-2.0833,101.3833,62.53,97,92,1.19,ID,1624134323
415,natitingou,10.3042,1.3796,80.4,67,62,2.55,BJ,1624134323
416,pimenta bueno,-11.6725,-61.1936,89.38,39,71,2.44,BR,1624134323
417,severnyy,50.677,36.5532,68.04,64,0,11.18,RU,1624134324
418,nileshwar,12.25,75.1,78.66,86,100,9.8,IN,1624134324
419,omboue,-1.5746,9.2618,75.81,81,3,11.54,GA,1624134325
420,kavaratti,10.5669,72.642,82.87,76,95,19.04,IN,1624134325
421,brae,60.3964,-1.353,51.71,69,83,6.96,GB,1624134325
422,kommunisticheskiy,61.6789,64.4819,54.36,97,100,10.42,RU,1624134326
423,nhulunbuy,-12.2333,136.7667,72.21,73,40,10.36,AU,1624134316
424,husavik,66.0449,-17.3389,46.31,84,68,8.75,IS,1624134327
425,maumere,-8.6199,122.2111,77.27,83,72,4.59,ID,1624134327
426,robertsport,6.7533,-11.3686,78.33,85,100,11.59,LR,1624134327
427,olinda,-8.0089,-34.8553,71.33,88,75,9.22,BR,1624134242
428,carmo do rio verde,-15.3536,-49.7075,84.0,34,86,3.06,BR,1624134328
429,pangody,65.85,74.4859,48.31,54,92,12.48,RU,1624134328
430,mecca,21.4267,39.8261,91.26,26,5,4.54,SA,1624134329
431,tondano,1.3038,124.9112,66.29,89,24,0.89,ID,1624134329
432,coihaique,-45.5752,-72.0662,46.35,57,75,6.91,CL,1624134330
433,saldanha,-33.0117,17.9442,57.25,44,16,8.23,ZA,1624134330
434,tecoanapa,16.5167,-98.75,83.17,78,89,7.4,MX,1624134331
435,oyek,52.5861,104.4556,52.18,67,32,1.59,RU,1624134331
436,warmbad,-28.45,18.7333,66.0,25,0,12.3,NA,1624134331
437,gat,31.61,34.7642,74.8,100,0,2.91,IL,1624134332
438,deputatskiy,69.3,139.9,70.38,35,14,3.71,RU,1624134332
439,zonalnaya stantsiya,56.4269,85.0221,50.25,93,75,8.95,RU,1624134333
440,basco,20.4487,121.9702,83.75,84,100,28.25,PH,1624134333
441,manta,-0.95,-80.7333,78.58,73,75,11.5,EC,1624134038
442,shingu,33.7333,135.9833,66.9,92,97,5.61,JP,1624134334
443,megion,61.0296,76.1136,42.82,79,87,7.05,RU,1624134334
444,aykhal,66.0,111.5,65.34,54,91,0.85,RU,1624134335
445,bargarh,21.3333,83.6167,75.99,88,98,4.16,IN,1624134335
446,nauen,52.607,12.8737,80.71,94,100,5.95,DE,1624134335
447,vostok,46.4856,135.8833,46.58,78,100,4.25,RU,1624134336
448,nouakchott,18.0858,-15.9785,80.53,61,0,21.34,MR,1624134336
449,grajewo,53.6473,22.4554,69.82,85,49,7.9,PL,1624134337
450,airai,-8.9266,125.4092,56.73,94,79,3.44,TL,1624134337
451,koslan,63.4564,48.8989,49.37,69,13,5.55,RU,1624134338
452,gameza,5.8026,-72.8059,58.1,81,56,5.82,CO,1624134338
453,gunnedah,-30.9833,150.25,47.73,80,87,4.0,AU,1624134338
454,frankfort,-27.2667,28.4833,50.18,56,0,3.04,ZA,1624134339
455,saravena,6.9538,-71.8752,86.16,61,50,3.4,CO,1624134339
456,haines junction,60.7522,-137.5108,67.95,40,100,3.44,CA,1624134340
457,prince rupert,54.3161,-130.3201,60.89,71,40,6.91,CA,1624134340
458,kasongo-lunda,-6.4667,16.8167,70.65,34,0,1.21,CD,1624134340
459,jumla,29.2747,82.1838,61.3,94,100,2.37,NP,1624134341
460,vestmannaeyjar,63.4427,-20.2734,47.52,73,61,17.76,IS,1624134341
461,paamiut,61.994,-49.6678,41.85,89,100,19.71,GL,1624134342
462,bontang,0.1333,117.5,76.51,90,100,6.44,ID,1624134342
463,guiyang,26.5833,106.7167,70.29,78,90,4.47,CN,1624134342
464,acapulco,16.8634,-99.8901,76.82,94,90,8.05,MX,1624134343
465,morondava,-20.2833,44.2833,71.19,54,2,10.96,MG,1624134343
466,kastamonu,41.5,33.6667,56.32,90,34,0.27,TR,1624134344
467,mao,39.8885,4.2658,73.96,88,20,13.8,ES,1624134344
468,trelew,-43.249,-65.3051,49.06,46,2,11.27,AR,1624134345
469,oga,46.4631,10.347,65.08,85,92,4.88,IT,1624134345
470,tingi,-11.3,35.0333,56.43,82,26,2.08,TZ,1624134345
471,melioratorov,57.2107,65.6077,57.58,94,40,8.95,RU,1624134346
472,bairiki,1.3292,172.9752,81.3,72,38,0.31,KI,1624134346
473,doka,13.5167,35.7667,74.98,67,100,10.38,SD,1624134347
474,alofi,-19.0595,-169.9187,75.09,94,75,10.36,NU,1624134347
475,sosnovoborsk,56.1325,93.3589,65.75,89,99,4.59,RU,1624134348
476,port said,31.2565,32.2841,75.18,69,0,8.05,EG,1624134247
477,boden,65.8252,21.6886,50.0,89,100,5.23,SE,1624134348
478,lumphat,13.4878,106.9816,73.74,97,61,1.05,KH,1624134349
479,zheleznodorozhnyy,55.7503,38.0042,72.01,74,0,5.82,RU,1624134349
480,rio grande,-32.035,-52.0986,59.11,92,100,14.81,BR,1624134349
481,laiyang,36.9758,120.7136,73.72,46,100,6.31,CN,1624134350
482,berezovyy,51.6667,135.7,54.79,74,100,2.15,RU,1624134350
483,chazuta,-6.5742,-76.1367,85.05,95,84,1.16,PE,1624134351
484,rocha,-34.4833,-54.3333,51.37,93,95,6.04,UY,1624134351
485,lazaro cardenas,17.9583,-102.2,79.38,84,100,9.6,MX,1624134351
486,filingue,14.3521,3.3168,96.93,29,82,3.49,NE,1624134352
487,linxia,35.6003,103.2064,55.38,62,100,3.04,CN,1624134352
488,salalah,17.0151,54.0924,80.69,89,75,6.91,OM,1624134353
489,byron bay,-28.65,153.6167,60.75,77,57,14.38,AU,1624134239
490,tatawin,32.9297,10.4518,94.08,27,0,7.96,TN,1624134354
491,bardiyah,31.7561,25.0865,72.9,76,0,15.17,LY,1624134354
492,akyab,20.15,92.9,79.34,84,100,6.06,MM,1624134354
493,yuanping,38.7153,112.7575,64.2,30,100,3.71,CN,1624134355
494,tautira,-17.7333,-149.15,77.02,81,43,18.03,PF,1624134356
495,strezhevoy,60.7333,77.5889,42.78,91,100,4.88,RU,1624134356
496,dunedin,-45.8742,170.5036,45.81,91,100,1.01,NZ,1624134143
497,malinovskiy,61.1953,62.8397,55.94,95,90,10.47,RU,1624134357
498,leshukonskoye,64.8989,45.7622,45.3,85,15,3.33,RU,1624134357
499,langsa,4.4683,97.9683,74.39,93,100,2.64,ID,1624134357
500,cockburn town,21.4612,-71.1419,84.16,70,40,12.66,TC,1624134358
501,richards bay,-28.783,32.0377,62.28,77,0,7.63,ZA,1624134358
502,kalabo,-14.97,22.6814,58.8,44,5,5.28,ZM,1624134359
503,carutapera,-1.195,-46.02,81.46,77,100,8.46,BR,1624134359
504,ranong,9.9658,98.6348,79.75,85,61,6.26,TH,1624134360
505,evanston,42.0411,-87.6901,91.15,52,40,1.01,US,1624134360
506,batemans bay,-35.7167,150.1833,51.91,71,67,11.72,AU,1624134360
507,avera,33.194,-82.5271,78.31,86,100,4.74,US,1624134361
508,dungarpur,23.8333,73.7167,76.78,80,99,11.79,IN,1624134361
509,turukhansk,65.8167,87.9833,52.92,92,100,7.99,RU,1624134075
510,tezu,27.9167,96.1667,74.66,92,41,2.53,IN,1624134362
511,belaya gora,68.5333,146.4167,67.57,50,29,3.38,RU,1624134362
512,north vernon,39.0062,-85.6236,83.82,68,100,12.33,US,1624134363
513,edinburg,55.9521,-3.1965,60.49,79,0,1.01,GB,1624134363
514,marathon,44.9,-89.7668,79.48,40,75,8.05,US,1624134364
515,ryotsu,38.0833,138.4333,65.98,93,18,6.69,JP,1624134364
516,otane,-39.8833,176.6333,56.01,98,100,12.75,NZ,1624134252
517,ingham,42.6,-84.3833,79.3,73,75,6.91,US,1624134365
518,chifeng,42.2683,118.9636,59.45,54,2,6.91,CN,1624134365
519,itarema,-2.9248,-39.9167,80.96,75,44,12.21,BR,1624134366
520,dumai,1.6833,101.45,73.15,97,100,1.3,ID,1624134366
521,istisu,40.9457,48.0738,63.27,21,0,7.76,AZ,1624134366
522,presidencia roque saenz pena,-26.7852,-60.4388,62.62,46,6,7.11,AR,1624134367
523,kenai,60.5544,-151.2583,60.03,79,75,5.75,US,1624134367
524,goderich,43.7501,-81.7165,62.92,72,100,3.44,CA,1624134368
525,jhunjhunun,28.1307,75.4014,87.67,50,52,8.7,IN,1624134368
526,kyshtovka,56.555,76.6271,41.29,83,11,5.35,RU,1624134369
527,reforma,18.1,-91.0167,91.06,56,100,2.48,MX,1624134369
528,pokosnoye,55.5258,101.0536,54.09,91,21,1.97,RU,1624134369
529,marawi,7.9986,124.2928,64.65,92,100,3.47,PH,1624134370
530,cherdyn,60.403,56.4787,58.68,64,19,13.82,RU,1624134370
531,autazes,-3.5797,-59.1306,84.51,69,26,5.08,BR,1624134371
532,hayden,47.766,-116.7866,83.75,32,20,11.5,US,1624134371
533,bubaque,11.2833,-15.8333,79.77,80,100,18.45,GW,1624134371
534,nouadhibou,20.931,-17.0347,69.78,68,0,18.41,MR,1624134372
535,sioux lookout,50.1001,-91.917,62.98,67,90,4.61,CA,1624134372
536,celestun,20.8667,-90.4,88.59,56,60,4.14,MX,1624134373
537,nizhniy kuranakh,58.8353,125.4869,61.9,94,76,2.39,RU,1624134373
538,hrinova,48.5779,19.5257,64.6,84,1,2.48,SK,1624134374
539,qasigiannguit,68.8193,-51.1922,46.65,65,99,3.98,GL,1624134374
540,alta floresta,-9.8756,-56.0861,93.02,43,20,3.44,BR,1624134374
541,alanya,36.5438,31.9998,73.53,76,3,3.4,TR,1624134375
542,bouillante,16.1304,-61.7692,85.23,75,29,15.57,GP,1624134375
543,shirokiy,49.758,129.523,55.15,85,100,7.29,RU,1624134376
544,ibadan,7.3878,3.8964,75.56,84,48,5.97,NG,1624134376
545,kashi,39.4547,75.9797,72.61,20,0,15.66,CN,1624134376
546,rongcheng,30.634,117.8517,70.32,99,100,2.13,CN,1624134377
547,bella union,-30.2752,-57.6007,58.87,67,31,8.86,UY,1624134377
548,kurmanayevka,52.5093,52.0675,61.83,74,3,7.02,RU,1624134378
549,puerto escondido,15.85,-97.0667,86.83,54,40,6.91,MX,1624134378
550,dingle,10.9995,122.6711,76.01,88,100,3.09,PH,1624134379
551,tungor,53.3808,142.9564,54.05,61,0,5.68,RU,1624134379
552,flinders,-34.5833,150.8552,56.21,79,98,8.01,AU,1624134379
553,terney,45.0503,136.6092,49.78,90,100,15.99,RU,1624134380
554,luganville,-15.5333,167.1667,77.63,82,27,2.21,VU,1624134380
555,vila velha,-20.3297,-40.2925,67.95,94,75,2.3,BR,1624134381
